{
    "type": "FeatureCollection",
    "features": [
        {
            "type": "Feature",
            "properties": {
                "id": "102187",
                "name": "Hayes Bikes",
                "notes": "",
                "website": null,
                "editlink": false
            },
            "geometry": {
                "type": "Point",
                "coordinates": [
                    -1.533747,
                    53.78529
                ]
            }
        },
        {
            "type": "Feature",
            "properties": {
                "id": "102189",
                "name": "Bob Jackson Cycles",
                "notes": "",
                "website": null,
                "editlink": false
            },
            "geometry": {
                "type": "Point",
                "coordinates": [
                    -1.636409,
                    53.806587
                ]
            }
        },
        {
            "type": "Feature",
            "properties": {
                "id": "102190",
                "name": "The Bike Shop",
                "notes": "",
                "website": null,
                "editlink": false
            },
            "geometry": {
                "type": "Point",
                "coordinates": [
                    -1.458481,
                    53.808064
                ]
            }
        },
        {
            "type": "Feature",
            "properties": {
                "id": "102191",
                "name": "Triangle",
                "notes": "",
                "website": null,
                "editlink": false
            },
            "geometry": {
                "type": "Point",
                "coordinates": [
                    -1.634854,
                    53.842766
                ]
            }
        },
        {
            "type": "Feature",
            "properties": {
                "id": "102196",
                "name": "Top Gear",
                "notes": "",
                "website": null,
                "editlink": false
            },
            "geometry": {
                "type": "Point",
                "coordinates": [
                    -1.660889,
                    53.797409
                ]
            }
        },
        {
            "type": "Feature",
            "properties": {
                "id": "102198",
                "name": "Woodrup Cycles",
                "notes": "",
                "website": null,
                "editlink": false
            },
            "geometry": {
                "type": "Point",
                "coordinates": [
                    -1.58417,
                    53.806679
                ]
            }
        },
        {
            "type": "Feature",
            "properties": {
                "id": "102199",
                "name": "Re-Cycle Engineering",
                "notes": "",
                "website": null,
                "editlink": false
            },
            "geometry": {
                "type": "Point",
                "coordinates": [
                    -1.574383,
                    53.814243
                ]
            }
        },
        {
            "type": "Feature",
            "properties": {
                "id": "102201",
                "name": "Stif Cycles",
                "notes": "",
                "website": null,
                "editlink": false
            },
            "geometry": {
                "type": "Point",
                "coordinates": [
                    -1.579109,
                    53.822147
                ]
            }
        },
        {
            "type": "Feature",
            "properties": {
                "id": "102202",
                "name": "Edinburgh Bicycle Co-Op",
                "notes": "",
                "website": null,
                "editlink": false
            },
            "geometry": {
                "type": "Point",
                "coordinates": [
                    -1.53718,
                    53.83168
                ]
            }
        },
        {
            "type": "Feature",
            "properties": {
                "id": "102203",
                "name": "Street Lane Cycles",
                "notes": "",
                "website": null,
                "editlink": false
            },
            "geometry": {
                "type": "Point",
                "coordinates": [
                    -1.523511,
                    53.83839
                ]
            }
        },
        {
            "type": "Feature",
            "properties": {
                "id": "102204",
                "name": "Drake`s Cycles",
                "notes": "",
                "website": null,
                "editlink": false
            },
            "geometry": {
                "type": "Point",
                "coordinates": [
                    -1.514924,
                    53.816479
                ]
            }
        },
        {
            "type": "Feature",
            "properties": {
                "id": "103092",
                "name": "Factory Direct Bikes",
                "notes": "",
                "website": null,
                "editlink": false
            },
            "geometry": {
                "type": "Point",
                "coordinates": [
                    -1.6566,
                    53.735031
                ]
            }
        },
        {
            "type": "Feature",
            "properties": {
                "id": "103247",
                "name": "Wade-Recycles",
                "notes": "",
                "website": null,
                "editlink": false
            },
            "geometry": {
                "type": "Point",
                "coordinates": [
                    -1.490614,
                    53.803417
                ]
            }
        },
        {
            "type": "Feature",
            "properties": {
                "id": "108037",
                "name": "Action Bikes",
                "notes": "",
                "website": null,
                "editlink": false
            },
            "geometry": {
                "type": "Point",
                "coordinates": [
                    -1.504794,
                    53.800499
                ]
            }
        },
        {
            "type": "Feature",
            "properties": {
                "id": "108913",
                "name": "Crossroads Cycles",
                "notes": "",
                "website": null,
                "editlink": false
            },
            "geometry": {
                "type": "Point",
                "coordinates": [
                    -1.66399,
                    53.757881
                ]
            }
        },
        {
            "type": "Feature",
            "properties": {
                "id": "113066",
                "name": "Crosstrax",
                "notes": "",
                "website": null,
                "editlink": false
            },
            "geometry": {
                "type": "Point",
                "coordinates": [
                    -1.662983,
                    53.823097
                ]
            }
        },
        {
            "type": "Feature",
            "properties": {
                "id": "113971",
                "name": "CyclePoint (Evans)",
                "notes": "",
                "website": null,
                "editlink": false
            },
            "geometry": {
                "type": "Point",
                "coordinates": [
                    -1.546873,
                    53.795223
                ]
            }
        },
        {
            "type": "Feature",
            "properties": {
                "id": "200009",
                "name": "Garage Bikes",
                "notes": "Bicycle Repairs, Parts and Accessories",
                "website": "http://www.garagebikes.co.uk/contact-us/",
                "editlink": false
            },
            "geometry": {
                "type": "Point",
                "coordinates": [
                    -1.600142,
                    53.742905
                ]
            }
        }
    ]
}